{
  "SFO": {
    "premium": {
      "hawaii": {
        "originAirport": {
          "point": {
            "latitude": 37.61861111111112,
            "longitude": -122.3736111111111
          },
          "name": "San Francisco International",
          "code": "SFO",
          "cityName": "San Francisco",
          "stateName": "California",
          "countryName": "United States"
        },
        "airports": [
          {
            "airport": {
              "point": {
                "latitude": 21.321666666666665,
                "longitude": -157.92499999999998
              },
              "name": "Honolulu International Airport",
              "code": "HNL",
              "cityName": "Honolulu",
              "stateName": "Hawaii",
              "countryName": "United States"
            },
            "miles": 105000,
            "upshow": false
          },
          {
            "airport": {
              "point": {
                "latitude": 20.901666666666664,
                "longitude": -156.43305555555554
              },
              "name": "Kahului Airport Kahului Maui",
              "code": "OGG",
              "cityName": "Kahului",
              "stateName": "Hawaii",
              "countryName": "United States"
            },
            "miles": 105000,
            "upshow": false
          },
          {
            "airport": {
              "point": {
                "latitude": 21.979166666666664,
                "longitude": -159.3413888888889
              },
              "name": "Kauai Island Lihue",
              "code": "LIH",
              "cityName": "Kauai Island",
              "stateName": "Hawaii",
              "countryName": "United States"
            },
            "miles": 105000,
            "upshow": false
          },
          {
            "airport": {
              "point": {
                "latitude": 19.735555555555557,
                "longitude": -156.04888888888888
              },
              "name": "Kona Big Island Keahole",
              "code": "KOA",
              "cityName": "Kona",
              "stateName": "Hawaii",
              "countryName": "United States"
            },
            "miles": 135000,
            "upshow": false
          }
        ]
      },
      "canada_alaska": {
        "originAirport": {
          "point": {
            "latitude": 37.61861111111112,
            "longitude": -122.3736111111111
          },
          "name": "San Francisco International",
          "code": "SFO",
          "cityName": "San Francisco",
          "stateName": "California",
          "countryName": "United States"
        },
        "airports": [
          {
            "airport": {
              "point": {
                "latitude": 51.11388888888888,
                "longitude": -114.01916666666666
              },
              "name": "Calgary International",
              "code": "YYC",
              "cityName": "Calgary",
              "stateName": "Alberta",
              "countryName": "Canada"
            },
            "miles": 50000,
            "upshow": false
          },
          {
            "airport": {
              "point": {
                "latitude": 53.30972222222223,
                "longitude": -113.5786111111111
              },
              "name": "Edmonton International",
              "code": "YEG",
              "cityName": "Edmonton",
              "stateName": "Alberta",
              "countryName": "Canada"
            },
            "miles": 50000,
            "upshow": false
          },
          {
            "airport": {
              "point": {
                "latitude": 49.95888888888889,
                "longitude": -119.37722222222222
              },
              "name": "Kelowna",
              "code": "YLW",
              "cityName": "Kelowna",
              "stateName": "British Columbia",
              "countryName": "Canada"
            },
            "miles": 50000,
            "upshow": false
          },
          {
            "airport": {
              "point": {
                "latitude": 49.19416666666666,
                "longitude": -123.18305555555557
              },
              "name": "Vancouver Intl",
              "code": "YVR",
              "cityName": "Vancouver",
              "stateName": "British Columbia",
              "countryName": "Canada"
            },
            "miles": 50000,
            "upshow": false
          },
          {
            "airport": {
              "point": {
                "latitude": 48.64722222222222,
                "longitude": -123.42444444444445
              },
              "name": "Victoria International",
              "code": "YYJ",
              "cityName": "Victoria",
              "stateName": "British Columbia",
              "countryName": "Canada"
            },
            "miles": 50000,
            "upshow": false
          },
          {
            "airport": {
              "point": {
                "latitude": 61.17472222222222,
                "longitude": -149.99388888888888
              },
              "name": "Anchorage International",
              "code": "ANC",
              "cityName": "Anchorage",
              "stateName": "Alaska",
              "countryName": "United States"
            },
            "miles": 90000,
            "upshow": false
          },
          {
            "airport": {
              "point": {
                "latitude": 44.88083333333334,
                "longitude": -63.50916666666666
              },
              "name": "Halifax Stanfield International Airport",
              "code": "YHZ",
              "cityName": "Halifax",
              "stateName": "Nova Scotia",
              "countryName": "Canada"
            },
            "miles": 90000,
            "upshow": false
          },
          {
            "airport": {
              "point": {
                "latitude": 45.46805555555556,
                "longitude": -73.74166666666667
              },
              "name": "Montreal Pierre Elliott Trudeau",
              "code": "YUL",
              "cityName": "Montreal",
              "stateName": "Quebec",
              "countryName": "Canada"
            },
            "miles": 90000,
            "upshow": false
          },
          {
            "airport": {
              "point": {
                "latitude": 43.67722222222223,
                "longitude": -79.63083333333333
              },
              "name": "Toronto Pearson International",
              "code": "YYZ",
              "cityName": "Toronto",
              "stateName": "Ontario",
              "countryName": "Canada"
            },
            "miles": 90000,
            "upshow": false
          },
          {
            "airport": {
              "point": {
                "latitude": 43.45888888888889,
                "longitude": -80.38472222222222
              },
              "name": "Kitchener Waterloo International Airport",
              "code": "YKF",
              "cityName": "Kitchener/ Waterloo",
              "stateName": "Ontario",
              "countryName": "Canada"
            },
            "miles": 115000,
            "upshow": false
          },
          {
            "airport": {
              "point": {
                "latitude": 45.322500000000005,
                "longitude": -75.66944444444444
              },
              "name": "Ottawa International",
              "code": "YOW",
              "cityName": "Ottawa",
              "stateName": "Ontario",
              "countryName": "Canada"
            },
            "miles": 115000,
            "upshow": false
          }
        ]
      },
      "asia_pacific_australia": {
        "originAirport": {
          "point": {
            "latitude": 37.61861111111112,
            "longitude": -122.3736111111111
          },
          "name": "San Francisco International",
          "code": "SFO",
          "cityName": "San Francisco",
          "stateName": "California",
          "countryName": "United States"
        },
        "airports": []
      },
      "africa_middle_east": {
        "originAirport": {
          "point": {
            "latitude": 37.61861111111112,
            "longitude": -122.3736111111111
          },
          "name": "San Francisco International",
          "code": "SFO",
          "cityName": "San Francisco",
          "stateName": "California",
          "countryName": "United States"
        },
        "airports": []
      },
      "europe": {
        "originAirport": {
          "point": {
            "latitude": 37.61861111111112,
            "longitude": -122.3736111111111
          },
          "name": "San Francisco International",
          "code": "SFO",
          "cityName": "San Francisco",
          "stateName": "California",
          "countryName": "United States"
        },
        "airports": []
      },
      "central_south_america": {
        "originAirport": {
          "point": {
            "latitude": 37.61861111111112,
            "longitude": -122.3736111111111
          },
          "name": "San Francisco International",
          "code": "SFO",
          "cityName": "San Francisco",
          "stateName": "California",
          "countryName": "United States"
        },
        "airports": [
          {
            "airport": {
              "point": {
                "latitude": 17.538333333333334,
                "longitude": -88.30916666666667
              },
              "name": "Belize City Philip SWGoldson Int",
              "code": "BZE",
              "cityName": "Belize City",
              "stateName": "",
              "countryName": "Belize"
            },
            "miles": 60000,
            "upshow": false
          },
          {
            "airport": {
              "point": {
                "latitude": 15.451666666666668,
                "longitude": -87.92333333333332
              },
              "name": "San Pedro Sula Ramon Villeda Morales",
              "code": "SAP",
              "cityName": "San Pedro Sula",
              "stateName": "",
              "countryName": "Honduras"
            },
            "miles": 60000,
            "upshow": false
          },
          {
            "airport": {
              "point": {
                "latitude": 14.061666666666667,
                "longitude": -87.21444444444445
              },
              "name": "Tegucigalpa Toncontin",
              "code": "TGU",
              "cityName": "Tegucigalpa",
              "stateName": "",
              "countryName": "Honduras"
            },
            "miles": 60000,
            "upshow": false
          },
          {
            "airport": {
              "point": {
                "latitude": 10.593333333333335,
                "longitude": -85.54583333333333
              },
              "name": "Daniel Oduber Quiros International Airport",
              "code": "LIR",
              "cityName": "Liberia",
              "stateName": "",
              "countryName": "Costa Rica"
            },
            "miles": 70000,
            "upshow": false
          },
          {
            "airport": {
              "point": {
                "latitude": 14.581944444444446,
                "longitude": -90.52749999999999
              },
              "name": "Guatemala City La Aurora",
              "code": "GUA",
              "cityName": "Guatemala City",
              "stateName": "",
              "countryName": "Guatemala"
            },
            "miles": 90000,
            "upshow": false
          },
          {
            "airport": {
              "point": {
                "latitude": 12.141666666666666,
                "longitude": -86.17333333333333
              },
              "name": "Managua Augusto C Sandino",
              "code": "MGA",
              "cityName": "Managua",
              "stateName": "",
              "countryName": "Nicaragua"
            },
            "miles": 90000,
            "upshow": false
          },
          {
            "airport": {
              "point": {
                "latitude": 9.99861111111111,
                "longitude": -84.19583333333334
              },
              "name": "San Jose Juan Santamaria Intl",
              "code": "SJO",
              "cityName": "San Jose",
              "stateName": "",
              "countryName": "Costa Rica"
            },
            "miles": 90000,
            "upshow": false
          },
          {
            "airport": {
              "point": {
                "latitude": 10.893333333333333,
                "longitude": -74.78333333333333
              },
              "name": "Barranquilla E Cortissoz",
              "code": "BAQ",
              "cityName": "Barranquilla",
              "stateName": "",
              "countryName": "Colombia"
            },
            "miles": 120000,
            "upshow": false
          },
          {
            "airport": {
              "point": {
                "latitude": 9.07,
                "longitude": -79.38361111111112
              },
              "name": "Panama City Tocumen International",
              "code": "PTY",
              "cityName": "Panama City",
              "stateName": "",
              "countryName": "Panama"
            },
            "miles": 120000,
            "upshow": false
          },
          {
            "airport": {
              "point": {
                "latitude": 13.44,
                "longitude": -89.05583333333331
              },
              "name": "San Salvador Comalapa International",
              "code": "SAL",
              "cityName": "San Salvador",
              "stateName": "",
              "countryName": "El Salvador"
            },
            "miles": 120000,
            "upshow": false
          }
        ]
      },
      "mexico_caribbean": {
        "originAirport": {
          "point": {
            "latitude": 37.61861111111112,
            "longitude": -122.3736111111111
          },
          "name": "San Francisco International",
          "code": "SFO",
          "cityName": "San Francisco",
          "stateName": "California",
          "countryName": "United States"
        },
        "airports": [
          {
            "airport": {
              "point": {
                "latitude": 12.504166666666668,
                "longitude": -70.01222222222222
              },
              "name": "Aruba Reina Beatrix",
              "code": "AUA",
              "cityName": "Aruba",
              "stateName": "",
              "countryName": "Aruba"
            },
            "miles": 60000,
            "upshow": false
          },
          {
            "airport": {
              "point": {
                "latitude": 19.438611111111115,
                "longitude": -99.06638888888887
              },
              "name": "Mexico City Benito Juarez International",
              "code": "MEX",
              "cityName": "Mexico City",
              "stateName": "",
              "countryName": "Mexico"
            },
            "miles": 60000,
            "upshow": false
          },
          {
            "airport": {
              "point": {
                "latitude": 25.474722222222223,
                "longitude": -76.685
              },
              "name": "North Eleuthera International",
              "code": "ELH",
              "cityName": "North Eleuthera",
              "stateName": "",
              "countryName": "Bahamas"
            },
            "miles": 60000,
            "upshow": false
          },
          {
            "airport": {
              "point": {
                "latitude": 23.155277777777776,
                "longitude": -109.725
              },
              "name": "Cabo San Lucas Los Cabos",
              "code": "SJD",
              "cityName": "San Jose Cabo",
              "stateName": "",
              "countryName": "Mexico"
            },
            "miles": 60000,
            "upshow": false
          },
          {
            "airport": {
              "point": {
                "latitude": 18.441388888888888,
                "longitude": -66.00222222222222
              },
              "name": "San Juan Luis Munoz Marin Intl",
              "code": "SJU",
              "cityName": "San Juan",
              "stateName": "",
              "countryName": "Puerto Rico"
            },
            "miles": 60000,
            "upshow": false
          },
          {
            "airport": {
              "point": {
                "latitude": 26.555277777777775,
                "longitude": -78.69833333333334
              },
              "name": "Freeport Grand Bahama Intl",
              "code": "FPO",
              "cityName": "Freeport",
              "stateName": "",
              "countryName": "Bahamas"
            },
            "miles": 70000,
            "upshow": false
          },
          {
            "airport": {
              "point": {
                "latitude": 19.291666666666668,
                "longitude": -81.35833333333333
              },
              "name": "Grand Cayman Island Owen Roberts Intl",
              "code": "GCM",
              "cityName": "Grand Cayman Island",
              "stateName": "",
              "countryName": "Cayman Islands"
            },
            "miles": 70000,
            "upshow": false
          },
          {
            "airport": {
              "point": {
                "latitude": 21.769166666666667,
                "longitude": -72.26833333333333
              },
              "name": "Providenciales International",
              "code": "PLS",
              "cityName": "Providenciales",
              "stateName": "",
              "countryName": "Turks And Caicos Islands"
            },
            "miles": 70000,
            "upshow": false
          },
          {
            "airport": {
              "point": {
                "latitude": 18.564999999999998,
                "longitude": -68.36333333333333
              },
              "name": "Punta Cana",
              "code": "PUJ",
              "cityName": "Punta Cana",
              "stateName": "",
              "countryName": "Dominican Republic"
            },
            "miles": 70000,
            "upshow": false
          },
          {
            "airport": {
              "point": {
                "latitude": 13.072222222222223,
                "longitude": -59.49194444444445
              },
              "name": "Bridgetown Grantley Adams Intl",
              "code": "BGI",
              "cityName": "Bridgetown",
              "stateName": "",
              "countryName": "Barbados"
            },
            "miles": 80000,
            "upshow": false
          },
          {
            "airport": {
              "point": {
                "latitude": 21.03166666666667,
                "longitude": -86.88055555555555
              },
              "name": "Cancun",
              "code": "CUN",
              "cityName": "Cancun",
              "stateName": "",
              "countryName": "Mexico"
            },
            "miles": 80000,
            "upshow": false
          },
          {
            "airport": {
              "point": {
                "latitude": 12.004166666666666,
                "longitude": -61.78805555555556
              },
              "name": "Maurice Bishop Intl",
              "code": "GND",
              "cityName": "Grenada",
              "stateName": "",
              "countryName": "Grenada"
            },
            "miles": 80000,
            "upshow": false
          },
          {
            "airport": {
              "point": {
                "latitude": 20.52138888888889,
                "longitude": -103.31083333333332
              },
              "name": "Guadalajara Miguel Hidalgo",
              "code": "GDL",
              "cityName": "Guadalajara",
              "stateName": "",
              "countryName": "Mexico"
            },
            "miles": 80000,
            "upshow": false
          },
          {
            "airport": {
              "point": {
                "latitude": 17.933055555555555,
                "longitude": -76.78888888888889
              },
              "name": "Kingston Norman Manley",
              "code": "KIN",
              "cityName": "Kingston",
              "stateName": "",
              "countryName": "Jamaica"
            },
            "miles": 80000,
            "upshow": false
          },
          {
            "airport": {
              "point": {
                "latitude": 26.511111111111113,
                "longitude": -77.08472222222221
              },
              "name": "Marsh Harbour International",
              "code": "MHH",
              "cityName": "Marsh Harbour",
              "stateName": "",
              "countryName": "Bahamas"
            },
            "miles": 80000,
            "upshow": false
          },
          {
            "airport": {
              "point": {
                "latitude": 23.160555555555558,
                "longitude": -106.26472222222223
              },
              "name": "Mazatlan Gen Rafael Buelna",
              "code": "MZT",
              "cityName": "Mazatlan",
              "stateName": "",
              "countryName": "Mexico"
            },
            "miles": 80000,
            "upshow": false
          },
          {
            "airport": {
              "point": {
                "latitude": 18.50027777777778,
                "longitude": -77.91583333333334
              },
              "name": "Montego Bay Sangster Intl",
              "code": "MBJ",
              "cityName": "Montego Bay",
              "stateName": "",
              "countryName": "Jamaica"
            },
            "miles": 80000,
            "upshow": false
          },
          {
            "airport": {
              "point": {
                "latitude": 18.579166666666666,
                "longitude": -72.29555555555555
              },
              "name": "Port Au Prince Mais Gate",
              "code": "PAP",
              "cityName": "Port Au Prince",
              "stateName": "",
              "countryName": "Haiti"
            },
            "miles": 80000,
            "upshow": false
          },
          {
            "airport": {
              "point": {
                "latitude": 20.678888888888885,
                "longitude": -105.25444444444443
              },
              "name": "Puerto Vallarta Gustavo Diaz Ordaz",
              "code": "PVR",
              "cityName": "Puerto Vallarta",
              "stateName": "",
              "countryName": "Mexico"
            },
            "miles": 80000,
            "upshow": false
          },
          {
            "airport": {
              "point": {
                "latitude": 19.469166666666666,
                "longitude": -70.70027777777779
              },
              "name": "Cibao International Airport",
              "code": "STI",
              "cityName": "Santiago",
              "stateName": "",
              "countryName": "Dominican Republic"
            },
            "miles": 80000,
            "upshow": false
          },
          {
            "airport": {
              "point": {
                "latitude": 18.432500000000005,
                "longitude": -69.67055555555557
              },
              "name": "Santo Domingo Las Americas",
              "code": "SDQ",
              "cityName": "Santo Domingo",
              "stateName": "",
              "countryName": "Dominican Republic"
            },
            "miles": 80000,
            "upshow": false
          },
          {
            "airport": {
              "point": {
                "latitude": 17.308055555555555,
                "longitude": -62.72138888888888
              },
              "name": "St Kitts Robert L Bradshaw International",
              "code": "SKB",
              "cityName": "St Kitts",
              "stateName": "",
              "countryName": "Saint Kitts And Nevis"
            },
            "miles": 80000,
            "upshow": false
          },
          {
            "airport": {
              "point": {
                "latitude": 18.039722222222224,
                "longitude": -63.11194444444445
              },
              "name": "St Maarten Princ Juliana",
              "code": "SXM",
              "cityName": "St Maarten",
              "stateName": "",
              "countryName": "Sint Maarten"
            },
            "miles": 80000,
            "upshow": false
          },
          {
            "airport": {
              "point": {
                "latitude": 28.702777777777772,
                "longitude": -105.96944444444446
              },
              "name": "Chihuahua Gen Fierro Villalobos",
              "code": "CUU",
              "cityName": "Chihuahua",
              "stateName": "",
              "countryName": "Mexico"
            },
            "miles": 90000,
            "upshow": false
          },
          {
            "airport": {
              "point": {
                "latitude": 25.77222222222222,
                "longitude": -100.10333333333331
              },
              "name": "Monterrey Gen Mariano Escobedo",
              "code": "MTY",
              "cityName": "Monterrey",
              "stateName": "",
              "countryName": "Mexico"
            },
            "miles": 90000,
            "upshow": false
          },
          {
            "airport": {
              "point": {
                "latitude": 17.14111111111111,
                "longitude": -61.78555555555554
              },
              "name": "Antigua VC Bird Intl",
              "code": "ANU",
              "cityName": "Antigua",
              "stateName": "",
              "countryName": "Antigua And Barbuda"
            },
            "miles": 100000,
            "upshow": false
          },
          {
            "airport": {
              "point": {
                "latitude": 12.191944444444445,
                "longitude": -68.95694444444446
              },
              "name": "Curacao Aeropuerto Hato",
              "code": "CUR",
              "cityName": "Curacao",
              "stateName": "",
              "countryName": "Curacao"
            },
            "miles": 100000,
            "upshow": false
          },
          {
            "airport": {
              "point": {
                "latitude": 23.46805555555555,
                "longitude": -75.7825
              },
              "name": "George Town Exuma International",
              "code": "GGT",
              "cityName": "George Town",
              "stateName": "",
              "countryName": "Bahamas"
            },
            "miles": 100000,
            "upshow": false
          },
          {
            "airport": {
              "point": {
                "latitude": 21.700277777777778,
                "longitude": -102.31722222222223
              },
              "name": "Aguascalientes",
              "code": "AGU",
              "cityName": "Aguascalientes",
              "stateName": "",
              "countryName": "Mexico"
            },
            "miles": 110000,
            "upshow": false
          },
          {
            "airport": {
              "point": {
                "latitude": 32.36527777777778,
                "longitude": -64.69
              },
              "name": "Bermuda Bermuda International Hamilton",
              "code": "BDA",
              "cityName": "Bermuda/ Hamilton",
              "stateName": "",
              "countryName": "Bermuda"
            },
            "miles": 110000,
            "upshow": false
          },
          {
            "airport": {
              "point": {
                "latitude": 20.514166666666668,
                "longitude": -86.94083333333332
              },
              "name": "Cozumel",
              "code": "CZM",
              "cityName": "Cozumel",
              "stateName": "",
              "countryName": "Mexico"
            },
            "miles": 110000,
            "upshow": false
          },
          {
            "airport": {
              "point": {
                "latitude": 14.590555555555554,
                "longitude": -60.999722222222225
              },
              "name": "Fort De France Lamentin",
              "code": "FDF",
              "cityName": "Fort De France",
              "stateName": "",
              "countryName": "Martinique"
            },
            "miles": 110000,
            "upshow": false
          },
          {
            "airport": {
              "point": {
                "latitude": 20.99138888888889,
                "longitude": -101.48
              },
              "name": "Guanajuato Leon Del Bajio",
              "code": "BJX",
              "cityName": "Leon/ Guanajuato",
              "stateName": "",
              "countryName": "Mexico"
            },
            "miles": 110000,
            "upshow": false
          },
          {
            "airport": {
              "point": {
                "latitude": 19.84638888888889,
                "longitude": -101.02888888888889
              },
              "name": "Morelia",
              "code": "MLM",
              "cityName": "Morelia",
              "stateName": "",
              "countryName": "Mexico"
            },
            "miles": 110000,
            "upshow": false
          },
          {
            "airport": {
              "point": {
                "latitude": 25.040277777777778,
                "longitude": -77.47027777777778
              },
              "name": "Nassau Intl",
              "code": "NAS",
              "cityName": "Nassau",
              "stateName": "",
              "countryName": "Bahamas"
            },
            "miles": 110000,
            "upshow": false
          },
          {
            "airport": {
              "point": {
                "latitude": 10.593055555555555,
                "longitude": -61.3486111111111
              },
              "name": "Port Of Spain Trinidad Piarco International",
              "code": "POS",
              "cityName": "Port Of Spain",
              "stateName": "",
              "countryName": "Trinidad And Tobago"
            },
            "miles": 110000,
            "upshow": false
          },
          {
            "airport": {
              "point": {
                "latitude": 19.134999999999998,
                "longitude": -98.36749999999999
              },
              "name": "Puebla Huejotsingo",
              "code": "PBC",
              "cityName": "Puebla",
              "stateName": "",
              "countryName": "Mexico"
            },
            "miles": 110000,
            "upshow": false
          },
          {
            "airport": {
              "point": {
                "latitude": 19.75888888888889,
                "longitude": -70.565
              },
              "name": "Puerto Plata La Union",
              "code": "POP",
              "cityName": "Puerto Plata",
              "stateName": "",
              "countryName": "Dominican Republic"
            },
            "miles": 110000,
            "upshow": false
          },
          {
            "airport": {
              "point": {
                "latitude": 20.622777777777777,
                "longitude": -100.36944444444443
              },
              "name": "Queretaro",
              "code": "QRO",
              "cityName": "Queretaro",
              "stateName": "",
              "countryName": "Mexico"
            },
            "miles": 110000,
            "upshow": false
          },
          {
            "airport": {
              "point": {
                "latitude": 22.25,
                "longitude": -100.93333333333332
              },
              "name": "San Luis Potosi",
              "code": "SLP",
              "cityName": "San Luis Potosi",
              "stateName": "",
              "countryName": "Mexico"
            },
            "miles": 110000,
            "upshow": false
          },
          {
            "airport": {
              "point": {
                "latitude": 17.703611111111115,
                "longitude": -64.79888888888887
              },
              "name": "Henry E Rohlsen International Airport",
              "code": "STX",
              "cityName": "St Croix Island",
              "stateName": "",
              "countryName": "Virgin Islands, U.S."
            },
            "miles": 110000,
            "upshow": false
          },
          {
            "airport": {
              "point": {
                "latitude": 13.732222222222221,
                "longitude": -60.95194444444446
              },
              "name": "St Lucia Hewanorra",
              "code": "UVF",
              "cityName": "St Lucia",
              "stateName": "",
              "countryName": "Saint Lucia"
            },
            "miles": 110000,
            "upshow": false
          },
          {
            "airport": {
              "point": {
                "latitude": 18.3375,
                "longitude": -64.96944444444446
              },
              "name": "St Thomas Island Cyril E King",
              "code": "STT",
              "cityName": "St Thomas Island",
              "stateName": "",
              "countryName": "Virgin Islands, U.S."
            },
            "miles": 110000,
            "upshow": false
          },
          {
            "airport": {
              "point": {
                "latitude": 25.56638888888889,
                "longitude": -103.41083333333334
              },
              "name": "Torreon",
              "code": "TRC",
              "cityName": "Torreon",
              "stateName": "",
              "countryName": "Mexico"
            },
            "miles": 110000,
            "upshow": false
          }
        ]
      },
      "domestic": {
        "originAirport": {
          "point": {
            "latitude": 37.61861111111112,
            "longitude": -122.3736111111111
          },
          "name": "San Francisco International",
          "code": "SFO",
          "cityName": "San Francisco",
          "stateName": "California",
          "countryName": "United States"
        },
        "airports": [
          {
            "airport": {
              "point": {
                "latitude": 35.041666666666664,
                "longitude": -106.60611111111112
              },
              "name": "Albuquerque International",
              "code": "ABQ",
              "cityName": "Albuquerque",
              "stateName": "New Mexico",
              "countryName": "United States"
            },
            "miles": 50000,
            "upshow": false
          },
          {
            "airport": {
              "point": {
                "latitude": 30.194444444444446,
                "longitude": -97.66972222222222
              },
              "name": "Austin Bergstrom Intl",
              "code": "AUS",
              "cityName": "Austin",
              "stateName": "Texas",
              "countryName": "United States"
            },
            "miles": 50000,
            "upshow": false
          },
          {
            "airport": {
              "point": {
                "latitude": 48.796388888888885,
                "longitude": -122.53722222222223
              },
              "name": "Bellingham",
              "code": "BLI",
              "cityName": "Bellingham",
              "stateName": "Washington",
              "countryName": "United States"
            },
            "miles": 50000,
            "upshow": false
          },
          {
            "airport": {
              "point": {
                "latitude": 44.25416666666667,
                "longitude": -121.14861111111112
              },
              "name": "Redmond Bend Roberts Field",
              "code": "RDM",
              "cityName": "Bend/ Redmond",
              "stateName": "Oregon",
              "countryName": "United States"
            },
            "miles": 50000,
            "upshow": false
          },
          {
            "airport": {
              "point": {
                "latitude": 43.565,
                "longitude": -116.22416666666666
              },
              "name": "Boise Air Term Gowen Fld",
              "code": "BOI",
              "cityName": "Boise",
              "stateName": "Idaho",
              "countryName": "United States"
            },
            "miles": 50000,
            "upshow": false
          },
          {
            "airport": {
              "point": {
                "latitude": 42.36416666666666,
                "longitude": -71.00555555555556
              },
              "name": "Boston Logan International",
              "code": "BOS",
              "cityName": "Boston",
              "stateName": "Massachusetts",
              "countryName": "United States"
            },
            "miles": 50000,
            "upshow": false
          },
          {
            "airport": {
              "point": {
                "latitude": 42.94027777777777,
                "longitude": -78.73222222222222
              },
              "name": "Buffalo Niagara Intl",
              "code": "BUF",
              "cityName": "Buffalo",
              "stateName": "New York",
              "countryName": "United States"
            },
            "miles": 50000,
            "upshow": false
          },
          {
            "airport": {
              "point": {
                "latitude": 34.20055555555556,
                "longitude": -118.35749999999999
              },
              "name": "Burbank Bob Hope",
              "code": "BUR",
              "cityName": "Burbank",
              "stateName": "California",
              "countryName": "United States"
            },
            "miles": 50000,
            "upshow": false
          },
          {
            "airport": {
              "point": {
                "latitude": 35.21416666666668,
                "longitude": -80.94361111111111
              },
              "name": "Charlotte Douglas",
              "code": "CLT",
              "cityName": "Charlotte",
              "stateName": "North Carolina",
              "countryName": "United States"
            },
            "miles": 50000,
            "upshow": false
          },
          {
            "airport": {
              "point": {
                "latitude": 41.97972222222222,
                "longitude": -87.90444444444447
              },
              "name": "Chicago OHare International",
              "code": "ORD",
              "cityName": "Chicago",
              "stateName": "Illinois",
              "countryName": "United States"
            },
            "miles": 50000,
            "upshow": false
          },
          {
            "airport": {
              "point": {
                "latitude": 39.047777777777775,
                "longitude": -84.66638888888887
              },
              "name": "Cincinnati Cinci/Nrthrn Kentucky",
              "code": "CVG",
              "cityName": "Cincinnati",
              "stateName": "Ohio",
              "countryName": "United States"
            },
            "miles": 50000,
            "upshow": false
          },
          {
            "airport": {
              "point": {
                "latitude": 41.410277777777786,
                "longitude": -81.84916666666666
              },
              "name": "Cleveland Hopkins International",
              "code": "CLE",
              "cityName": "Cleveland",
              "stateName": "Ohio",
              "countryName": "United States"
            },
            "miles": 50000,
            "upshow": false
          },
          {
            "airport": {
              "point": {
                "latitude": 39.90083333333333,
                "longitude": -84.22000000000001
              },
              "name": "Dayton International Airport",
              "code": "DAY",
              "cityName": "Dayton",
              "stateName": "Ohio",
              "countryName": "United States"
            },
            "miles": 50000,
            "upshow": false
          },
          {
            "airport": {
              "point": {
                "latitude": 37.15138888888889,
                "longitude": -107.75305555555553
              },
              "name": "Durango La Plata",
              "code": "DRO",
              "cityName": "Durango",
              "stateName": "Colorado",
              "countryName": "United States"
            },
            "miles": 50000,
            "upshow": false
          },
          {
            "airport": {
              "point": {
                "latitude": 31.80638888888889,
                "longitude": -106.37722222222222
              },
              "name": "El Paso International",
              "code": "ELP",
              "cityName": "El Paso",
              "stateName": "Texas",
              "countryName": "United States"
            },
            "miles": 50000,
            "upshow": false
          },
          {
            "airport": {
              "point": {
                "latitude": 44.12166666666667,
                "longitude": -123.2172222222222
              },
              "name": "Eugene",
              "code": "EUG",
              "cityName": "Eugene",
              "stateName": "Oregon",
              "countryName": "United States"
            },
            "miles": 50000,
            "upshow": false
          },
          {
            "airport": {
              "point": {
                "latitude": 29.98,
                "longitude": -95.33944444444444
              },
              "name": "Houston George Bush Intercntl",
              "code": "IAH",
              "cityName": "Houston",
              "stateName": "Texas",
              "countryName": "United States"
            },
            "miles": 50000,
            "upshow": false
          },
          {
            "airport": {
              "point": {
                "latitude": 30.4925,
                "longitude": -81.68972222222223
              },
              "name": "Jacksonville International",
              "code": "JAX",
              "cityName": "Jacksonville",
              "stateName": "Florida",
              "countryName": "United States"
            },
            "miles": 50000,
            "upshow": false
          },
          {
            "airport": {
              "point": {
                "latitude": 36.082777777777785,
                "longitude": -115.15333333333334
              },
              "name": "Las Vegas McCarran Intl",
              "code": "LAS",
              "cityName": "Las Vegas",
              "stateName": "Nevada",
              "countryName": "United States"
            },
            "miles": 50000,
            "upshow": false
          },
          {
            "airport": {
              "point": {
                "latitude": 46.37444444444444,
                "longitude": -117.01416666666667
              },
              "name": "Lewiston Nez Perce County Rgnl",
              "code": "LWS",
              "cityName": "Lewiston",
              "stateName": "Idaho",
              "countryName": "United States"
            },
            "miles": 50000,
            "upshow": false
          },
          {
            "airport": {
              "point": {
                "latitude": 33.8175,
                "longitude": -118.15055555555557
              },
              "name": "Long Beach Municipal",
              "code": "LGB",
              "cityName": "Long Beach",
              "stateName": "California",
              "countryName": "United States"
            },
            "miles": 50000,
            "upshow": false
          },
          {
            "airport": {
              "point": {
                "latitude": 33.942499999999995,
                "longitude": -118.40694444444445
              },
              "name": "Los Angeles International",
              "code": "LAX",
              "cityName": "Los Angeles",
              "stateName": "California",
              "countryName": "United States"
            },
            "miles": 50000,
            "upshow": false
          },
          {
            "airport": {
              "point": {
                "latitude": 42.37222222222222,
                "longitude": -122.87138888888889
              },
              "name": "Medford Jackson County",
              "code": "MFR",
              "cityName": "Medford",
              "stateName": "Oregon",
              "countryName": "United States"
            },
            "miles": 50000,
            "upshow": false
          },
          {
            "airport": {
              "point": {
                "latitude": 25.79277777777778,
                "longitude": -80.29083333333332
              },
              "name": "Miami International",
              "code": "MIA",
              "cityName": "Miami",
              "stateName": "Florida",
              "countryName": "United States"
            },
            "miles": 50000,
            "upshow": false
          },
          {
            "airport": {
              "point": {
                "latitude": 40.77722222222222,
                "longitude": -73.87388888888889
              },
              "name": "New York LaGuardia",
              "code": "LGA",
              "cityName": "New York",
              "stateName": "New York",
              "countryName": "United States"
            },
            "miles": 50000,
            "upshow": false
          },
          {
            "airport": {
              "point": {
                "latitude": 41.30194444444444,
                "longitude": -95.89333333333336
              },
              "name": "Omaha Eppley Airfield",
              "code": "OMA",
              "cityName": "Omaha",
              "stateName": "Nebraska",
              "countryName": "United States"
            },
            "miles": 50000,
            "upshow": false
          },
          {
            "airport": {
              "point": {
                "latitude": 34.05583333333333,
                "longitude": -117.60027777777778
              },
              "name": "Ontario International",
              "code": "ONT",
              "cityName": "Ontario",
              "stateName": "California",
              "countryName": "United States"
            },
            "miles": 50000,
            "upshow": false
          },
          {
            "airport": {
              "point": {
                "latitude": 28.431388888888886,
                "longitude": -81.32444444444444
              },
              "name": "Orlando International",
              "code": "MCO",
              "cityName": "Orlando",
              "stateName": "Florida",
              "countryName": "United States"
            },
            "miles": 50000,
            "upshow": false
          },
          {
            "airport": {
              "point": {
                "latitude": 33.82777777777778,
                "longitude": -116.50527777777779
              },
              "name": "Palm Springs International Airport",
              "code": "PSP",
              "cityName": "Palm Springs",
              "stateName": "California",
              "countryName": "United States"
            },
            "miles": 50000,
            "upshow": false
          },
          {
            "airport": {
              "point": {
                "latitude": 46.26472222222222,
                "longitude": -119.11777777777776
              },
              "name": "Pasco Tri Cities",
              "code": "PSC",
              "cityName": "Pasco",
              "stateName": "Washington",
              "countryName": "United States"
            },
            "miles": 50000,
            "upshow": false
          },
          {
            "airport": {
              "point": {
                "latitude": 30.47305555555555,
                "longitude": -87.1875
              },
              "name": "Pensacola Regional",
              "code": "PNS",
              "cityName": "Pensacola",
              "stateName": "Florida",
              "countryName": "United States"
            },
            "miles": 50000,
            "upshow": false
          },
          {
            "airport": {
              "point": {
                "latitude": 33.435833333333335,
                "longitude": -112.00861111111112
              },
              "name": "Phoenix Sky Harbor Intl",
              "code": "PHX",
              "cityName": "Phoenix",
              "stateName": "Arizona",
              "countryName": "United States"
            },
            "miles": 50000,
            "upshow": false
          },
          {
            "airport": {
              "point": {
                "latitude": 45.58861111111111,
                "longitude": -122.5961111111111
              },
              "name": "Portland International",
              "code": "PDX",
              "cityName": "Portland",
              "stateName": "Oregon",
              "countryName": "United States"
            },
            "miles": 50000,
            "upshow": false
          },
          {
            "airport": {
              "point": {
                "latitude": 46.7438888888889,
                "longitude": -117.10833333333332
              },
              "name": "Pullman Moscow Regional",
              "code": "PUW",
              "cityName": "Pullman",
              "stateName": "Washington",
              "countryName": "United States"
            },
            "miles": 50000,
            "upshow": false
          },
          {
            "airport": {
              "point": {
                "latitude": 29.53333333333334,
                "longitude": -98.46944444444445
              },
              "name": "San Antonio International",
              "code": "SAT",
              "cityName": "San Antonio",
              "stateName": "Texas",
              "countryName": "United States"
            },
            "miles": 50000,
            "upshow": false
          },
          {
            "airport": {
              "point": {
                "latitude": 32.733333333333334,
                "longitude": -117.18666666666667
              },
              "name": "San Diego Lindbergh Fld SDiego",
              "code": "SAN",
              "cityName": "San Diego",
              "stateName": "California",
              "countryName": "United States"
            },
            "miles": 50000,
            "upshow": false
          },
          {
            "airport": {
              "point": {
                "latitude": 47.44916666666666,
                "longitude": -122.30805555555557
              },
              "name": "Seattle Tacoma Intl",
              "code": "SEA",
              "cityName": "Seattle",
              "stateName": "Washington",
              "countryName": "United States"
            },
            "miles": 50000,
            "upshow": false
          },
          {
            "airport": {
              "point": {
                "latitude": 47.61972222222222,
                "longitude": -117.53277777777778
              },
              "name": "Spokane International",
              "code": "GEG",
              "cityName": "Spokane",
              "stateName": "Washington",
              "countryName": "United States"
            },
            "miles": 50000,
            "upshow": false
          },
          {
            "airport": {
              "point": {
                "latitude": 30.395833333333332,
                "longitude": -84.35027777777778
              },
              "name": "Tallahassee Municipal",
              "code": "TLH",
              "cityName": "Tallahassee",
              "stateName": "Florida",
              "countryName": "United States"
            },
            "miles": 50000,
            "upshow": false
          },
          {
            "airport": {
              "point": {
                "latitude": 27.974999999999998,
                "longitude": -82.53333333333333
              },
              "name": "Tampa International",
              "code": "TPA",
              "cityName": "Tampa",
              "stateName": "Florida",
              "countryName": "United States"
            },
            "miles": 50000,
            "upshow": false
          },
          {
            "airport": {
              "point": {
                "latitude": 32.11805555555556,
                "longitude": -110.94305555555556
              },
              "name": "Tucson International",
              "code": "TUS",
              "cityName": "Tucson",
              "stateName": "Arizona",
              "countryName": "United States"
            },
            "miles": 50000,
            "upshow": false
          },
          {
            "airport": {
              "point": {
                "latitude": 46.09444444444445,
                "longitude": -118.28694444444446
              },
              "name": "Walla Walla",
              "code": "ALW",
              "cityName": "Walla Walla",
              "stateName": "Washington",
              "countryName": "United States"
            },
            "miles": 50000,
            "upshow": false
          },
          {
            "airport": {
              "point": {
                "latitude": 47.39888888888889,
                "longitude": -120.20555555555556
              },
              "name": "Wenatchee Pangborn Field",
              "code": "EAT",
              "cityName": "Wenatchee",
              "stateName": "Washington",
              "countryName": "United States"
            },
            "miles": 50000,
            "upshow": false
          },
          {
            "airport": {
              "point": {
                "latitude": 41.938611111111115,
                "longitude": -72.6836111111111
              },
              "name": "Hartford Springfield Windsor Locks Bradley International",
              "code": "BDL",
              "cityName": "Windsor Locks/ Hartford",
              "stateName": "Connecticut",
              "countryName": "United States"
            },
            "miles": 50000,
            "upshow": false
          },
          {
            "airport": {
              "point": {
                "latitude": 40.63999999999999,
                "longitude": -73.77805555555557
              },
              "name": "New York John F Kennedy Intl",
              "code": "JFK",
              "cityName": "New York",
              "stateName": "New York",
              "countryName": "United States"
            },
            "miles": 57500,
            "upshow": false
          },
          {
            "airport": {
              "point": {
                "latitude": 32.41111111111111,
                "longitude": -99.68138888888889
              },
              "name": "Abilene Regional Airport",
              "code": "ABI",
              "cityName": "Abilene",
              "stateName": "Texas",
              "countryName": "United States"
            },
            "miles": 80000,
            "upshow": false
          },
          {
            "airport": {
              "point": {
                "latitude": 31.32694444444444,
                "longitude": -92.54805555555554
              },
              "name": "Alexandria Internation",
              "code": "AEX",
              "cityName": "Alexandria",
              "stateName": "Louisiana",
              "countryName": "United States"
            },
            "miles": 80000,
            "upshow": false
          },
          {
            "airport": {
              "point": {
                "latitude": 35.221111111111114,
                "longitude": -101.71000000000002
              },
              "name": "Amarillo International",
              "code": "AMA",
              "cityName": "Amarillo",
              "stateName": "Texas",
              "countryName": "United States"
            },
            "miles": 80000,
            "upshow": false
          },
          {
            "airport": {
              "point": {
                "latitude": 33.64027777777777,
                "longitude": -84.42694444444444
              },
              "name": "Atlanta Hartsfield Jackson",
              "code": "ATL",
              "cityName": "Atlanta",
              "stateName": "Georgia",
              "countryName": "United States"
            },
            "miles": 80000,
            "upshow": false
          },
          {
            "airport": {
              "point": {
                "latitude": 39.175000000000004,
                "longitude": -76.66916666666668
              },
              "name": "Baltimore Washington International Airport",
              "code": "BWI",
              "cityName": "Baltimore",
              "stateName": "Maryland",
              "countryName": "United States"
            },
            "miles": 80000,
            "upshow": false
          },
          {
            "airport": {
              "point": {
                "latitude": 30.532499999999995,
                "longitude": -91.14972222222224
              },
              "name": "Baton Rouge Ryan",
              "code": "BTR",
              "cityName": "Baton Rouge",
              "stateName": "Louisiana",
              "countryName": "United States"
            },
            "miles": 80000,
            "upshow": false
          },
          {
            "airport": {
              "point": {
                "latitude": 29.950555555555553,
                "longitude": -94.02027777777778
              },
              "name": "Beaumont Jefferson County",
              "code": "BPT",
              "cityName": "Beaumont",
              "stateName": "Texas",
              "countryName": "United States"
            },
            "miles": 80000,
            "upshow": false
          },
          {
            "airport": {
              "point": {
                "latitude": 36.28166666666666,
                "longitude": -94.30666666666666
              },
              "name": "Northwest Arkansas Regional Airport",
              "code": "XNA",
              "cityName": "Bentonville / Fayetteville",
              "stateName": "Arkansas",
              "countryName": "United States"
            },
            "miles": 80000,
            "upshow": false
          },
          {
            "airport": {
              "point": {
                "latitude": 33.56361111111111,
                "longitude": -86.75444444444443
              },
              "name": "Birmingham",
              "code": "BHM",
              "cityName": "Birmingham",
              "stateName": "Alabama",
              "countryName": "United States"
            },
            "miles": 80000,
            "upshow": false
          },
          {
            "airport": {
              "point": {
                "latitude": 40.48027777777778,
                "longitude": -88.92361111111111
              },
              "name": "Bloomington Normal",
              "code": "BMI",
              "cityName": "Bloomington-Normal",
              "stateName": "Illinois",
              "countryName": "United States"
            },
            "miles": 80000,
            "upshow": false
          },
          {
            "airport": {
              "point": {
                "latitude": 27.395,
                "longitude": -82.55416666666666
              },
              "name": "Sarasota Bradenton",
              "code": "SRQ",
              "cityName": "Bradenton/ Sarasota",
              "stateName": "Florida",
              "countryName": "United States"
            },
            "miles": 80000,
            "upshow": false
          },
          {
            "airport": {
              "point": {
                "latitude": 25.906388888888888,
                "longitude": -97.42555555555556
              },
              "name": "Brownsville South Padre Is Intl",
              "code": "BRO",
              "cityName": "Brownsville",
              "stateName": "Texas",
              "countryName": "United States"
            },
            "miles": 80000,
            "upshow": false
          },
          {
            "airport": {
              "point": {
                "latitude": 44.471388888888896,
                "longitude": -73.15305555555558
              },
              "name": "Burlington International",
              "code": "BTV",
              "cityName": "Burlington",
              "stateName": "Vermont",
              "countryName": "United States"
            },
            "miles": 80000,
            "upshow": false
          },
          {
            "airport": {
              "point": {
                "latitude": 41.88444444444445,
                "longitude": -91.70861111111111
              },
              "name": "Cedar Rapids",
              "code": "CID",
              "cityName": "Cedar Rapids",
              "stateName": "Iowa",
              "countryName": "United States"
            },
            "miles": 80000,
            "upshow": false
          },
          {
            "airport": {
              "point": {
                "latitude": 40.03944444444444,
                "longitude": -88.27750000000002
              },
              "name": "Champaign Willard University",
              "code": "CMI",
              "cityName": "Champaign",
              "stateName": "Illinois",
              "countryName": "United States"
            },
            "miles": 80000,
            "upshow": false
          },
          {
            "airport": {
              "point": {
                "latitude": 32.89833333333333,
                "longitude": -80.04055555555556
              },
              "name": "Charleston AFB International Airport",
              "code": "CHS",
              "cityName": "Charleston",
              "stateName": "South Carolina",
              "countryName": "United States"
            },
            "miles": 80000,
            "upshow": false
          },
          {
            "airport": {
              "point": {
                "latitude": 38.37305555555555,
                "longitude": -81.59333333333335
              },
              "name": "Charleston Yeager",
              "code": "CRW",
              "cityName": "Charleston",
              "stateName": "West Virginia",
              "countryName": "United States"
            },
            "miles": 80000,
            "upshow": false
          },
          {
            "airport": {
              "point": {
                "latitude": 38.138333333333335,
                "longitude": -78.45305555555557
              },
              "name": "Charlottesville Albemarle",
              "code": "CHO",
              "cityName": "Charlottesville",
              "stateName": "Virginia",
              "countryName": "United States"
            },
            "miles": 80000,
            "upshow": false
          },
          {
            "airport": {
              "point": {
                "latitude": 35.035,
                "longitude": -85.2036111111111
              },
              "name": "Chattanooga Lovell Field",
              "code": "CHA",
              "cityName": "Chattanooga",
              "stateName": "Tennessee",
              "countryName": "United States"
            },
            "miles": 80000,
            "upshow": false
          },
          {
            "airport": {
              "point": {
                "latitude": 30.58833333333333,
                "longitude": -96.36333333333333
              },
              "name": "College Station Easterwood Field",
              "code": "CLL",
              "cityName": "College Station",
              "stateName": "Texas",
              "countryName": "United States"
            },
            "miles": 80000,
            "upshow": false
          },
          {
            "airport": {
              "point": {
                "latitude": 38.808611111111105,
                "longitude": -104.70944444444444
              },
              "name": "Colorado Springs Municipal",
              "code": "COS",
              "cityName": "Colorado Springs",
              "stateName": "Colorado",
              "countryName": "United States"
            },
            "miles": 80000,
            "upshow": false
          },
          {
            "airport": {
              "point": {
                "latitude": 38.81805555555556,
                "longitude": -92.21944444444446
              },
              "name": "Columbia Regional",
              "code": "COU",
              "cityName": "Columbia",
              "stateName": "Missouri",
              "countryName": "United States"
            },
            "miles": 80000,
            "upshow": false
          },
          {
            "airport": {
              "point": {
                "latitude": 33.94027777777777,
                "longitude": -81.11944444444444
              },
              "name": "Columbia Metropolitan Airport",
              "code": "CAE",
              "cityName": "Columbia",
              "stateName": "South Carolina",
              "countryName": "United States"
            },
            "miles": 80000,
            "upshow": false
          },
          {
            "airport": {
              "point": {
                "latitude": 39.99499999999999,
                "longitude": -82.8861111111111
              },
              "name": "Port Columbus Intl",
              "code": "CMH",
              "cityName": "Columbus",
              "stateName": "Ohio",
              "countryName": "United States"
            },
            "miles": 80000,
            "upshow": false
          },
          {
            "airport": {
              "point": {
                "latitude": 27.769999999999996,
                "longitude": -97.50083333333333
              },
              "name": "Corpus Christi International",
              "code": "CRP",
              "cityName": "Corpus Christi",
              "stateName": "Texas",
              "countryName": "United States"
            },
            "miles": 80000,
            "upshow": false
          },
          {
            "airport": {
              "point": {
                "latitude": 32.89611111111112,
                "longitude": -97.04111111111112
              },
              "name": "Dallas Fort Worth International",
              "code": "DFW",
              "cityName": "Dallas/ Fort Worth",
              "stateName": "Texas",
              "countryName": "United States"
            },
            "miles": 80000,
            "upshow": false
          },
          {
            "airport": {
              "point": {
                "latitude": 39.86277777777778,
                "longitude": -104.6575
              },
              "name": "Denver International",
              "code": "DEN",
              "cityName": "Denver",
              "stateName": "Colorado",
              "countryName": "United States"
            },
            "miles": 80000,
            "upshow": false
          },
          {
            "airport": {
              "point": {
                "latitude": 41.53472222222222,
                "longitude": -93.66027777777778
              },
              "name": "Des Moines",
              "code": "DSM",
              "cityName": "Des Moines",
              "stateName": "Iowa",
              "countryName": "United States"
            },
            "miles": 80000,
            "upshow": false
          },
          {
            "airport": {
              "point": {
                "latitude": 42.215,
                "longitude": -83.34861111111111
              },
              "name": "Detroit Metropolitan Wayne County Airport",
              "code": "DTW",
              "cityName": "Detroit",
              "stateName": "Michigan",
              "countryName": "United States"
            },
            "miles": 80000,
            "upshow": false
          },
          {
            "airport": {
              "point": {
                "latitude": 42.40277777777778,
                "longitude": -90.70888888888891
              },
              "name": "Dubuque Regional Airport",
              "code": "DBQ",
              "cityName": "Dubuque",
              "stateName": "Iowa",
              "countryName": "United States"
            },
            "miles": 80000,
            "upshow": false
          },
          {
            "airport": {
              "point": {
                "latitude": 38.03777777777778,
                "longitude": -87.53055555555555
              },
              "name": "Evansville Dress Regional",
              "code": "EVV",
              "cityName": "Evansville",
              "stateName": "Indiana",
              "countryName": "United States"
            },
            "miles": 80000,
            "upshow": false
          },
          {
            "airport": {
              "point": {
                "latitude": 46.915277777777774,
                "longitude": -96.81444444444443
              },
              "name": "Fargo Hector Field",
              "code": "FAR",
              "cityName": "Fargo",
              "stateName": "North Dakota",
              "countryName": "United States"
            },
            "miles": 80000,
            "upshow": false
          },
          {
            "airport": {
              "point": {
                "latitude": 42.965277777777786,
                "longitude": -83.74333333333335
              },
              "name": "Flint Bishop",
              "code": "FNT",
              "cityName": "Flint",
              "stateName": "Michigan",
              "countryName": "United States"
            },
            "miles": 80000,
            "upshow": false
          },
          {
            "airport": {
              "point": {
                "latitude": 26.071944444444448,
                "longitude": -80.15333333333334
              },
              "name": "Fort Lauderdale International",
              "code": "FLL",
              "cityName": "Fort Lauderdale",
              "stateName": "Florida",
              "countryName": "United States"
            },
            "miles": 80000,
            "upshow": false
          },
          {
            "airport": {
              "point": {
                "latitude": 26.53611111111111,
                "longitude": -81.75472222222223
              },
              "name": "Fort Myers Southwest Florida Reg",
              "code": "RSW",
              "cityName": "Fort Myers",
              "stateName": "Florida",
              "countryName": "United States"
            },
            "miles": 80000,
            "upshow": false
          },
          {
            "airport": {
              "point": {
                "latitude": 35.33583333333333,
                "longitude": -94.36749999999999
              },
              "name": "Fort Smith Regional Airport",
              "code": "FSM",
              "cityName": "Fort Smith",
              "stateName": "Arkansas",
              "countryName": "United States"
            },
            "miles": 80000,
            "upshow": false
          },
          {
            "airport": {
              "point": {
                "latitude": 30.486666666666668,
                "longitude": -86.52666666666667
              },
              "name": "Destin Fort Walton Beach",
              "code": "VPS",
              "cityName": "Fort Walton Beach",
              "stateName": "Florida",
              "countryName": "United States"
            },
            "miles": 80000,
            "upshow": false
          },
          {
            "airport": {
              "point": {
                "latitude": 40.979166666666664,
                "longitude": -85.19194444444443
              },
              "name": "Fort Wayne International Airport",
              "code": "FWA",
              "cityName": "Fort Wayne",
              "stateName": "Indiana",
              "countryName": "United States"
            },
            "miles": 80000,
            "upshow": false
          },
          {
            "airport": {
              "point": {
                "latitude": 29.689722222222223,
                "longitude": -82.27194444444444
              },
              "name": "Gainesville Regional Airport",
              "code": "GNV",
              "cityName": "Gainesville",
              "stateName": "Florida",
              "countryName": "United States"
            },
            "miles": 80000,
            "upshow": false
          },
          {
            "airport": {
              "point": {
                "latitude": 37.92638888888888,
                "longitude": -100.72444444444443
              },
              "name": "Garden City Municipal Airport",
              "code": "GCK",
              "cityName": "Garden City",
              "stateName": "Kansas",
              "countryName": "United States"
            },
            "miles": 80000,
            "upshow": false
          },
          {
            "airport": {
              "point": {
                "latitude": 32.38444444444445,
                "longitude": -94.71138888888889
              },
              "name": "Longview Gladewater Gregg County Kilgore",
              "code": "GGG",
              "cityName": "Gladewater/ Kilgore/ Longview",
              "stateName": "Texas",
              "countryName": "United States"
            },
            "miles": 80000,
            "upshow": false
          },
          {
            "airport": {
              "point": {
                "latitude": 40.967222222222226,
                "longitude": -98.30805555555555
              },
              "name": "Grand Island",
              "code": "GRI",
              "cityName": "Grand Island",
              "stateName": "Nebraska",
              "countryName": "United States"
            },
            "miles": 80000,
            "upshow": false
          },
          {
            "airport": {
              "point": {
                "latitude": 39.12222222222221,
                "longitude": -108.52583333333335
              },
              "name": "Grand Junction Walker Field",
              "code": "GJT",
              "cityName": "Grand Junction",
              "stateName": "Colorado",
              "countryName": "United States"
            },
            "miles": 80000,
            "upshow": false
          },
          {
            "airport": {
              "point": {
                "latitude": 42.88250000000001,
                "longitude": -85.5238888888889
              },
              "name": "Gerald R Ford International Airport",
              "code": "GRR",
              "cityName": "Grand Rapids",
              "stateName": "Michigan",
              "countryName": "United States"
            },
            "miles": 80000,
            "upshow": false
          },
          {
            "airport": {
              "point": {
                "latitude": 44.48777777777778,
                "longitude": -88.12749999999998
              },
              "name": "Green Bay Austin Straubel International Airport",
              "code": "GRB",
              "cityName": "Green Bay",
              "stateName": "Wisconsin",
              "countryName": "United States"
            },
            "miles": 80000,
            "upshow": false
          },
          {
            "airport": {
              "point": {
                "latitude": 36.096111111111114,
                "longitude": -79.93916666666667
              },
              "name": "Greensboro High Point Piedmont Triad Intl",
              "code": "GSO",
              "cityName": "Greensboro/ High Point/ Winston-Salem",
              "stateName": "North Carolina",
              "countryName": "United States"
            },
            "miles": 80000,
            "upshow": false
          },
          {
            "airport": {
              "point": {
                "latitude": 34.89611111111111,
                "longitude": -82.21833333333333
              },
              "name": "Greer Greenville Spartanburg",
              "code": "GSP",
              "cityName": "Greenville/ Greer",
              "stateName": "South Carolina",
              "countryName": "United States"
            },
            "miles": 80000,
            "upshow": false
          },
          {
            "airport": {
              "point": {
                "latitude": 30.40666666666667,
                "longitude": -89.06972222222224
              },
              "name": "Gulfport Biloxi Regional",
              "code": "GPT",
              "cityName": "Gulfport",
              "stateName": "Mississippi",
              "countryName": "United States"
            },
            "miles": 80000,
            "upshow": false
          },
          {
            "airport": {
              "point": {
                "latitude": 40.193333333333335,
                "longitude": -76.7636111111111
              },
              "name": "Harrisburg Intl",
              "code": "MDT",
              "cityName": "Harrisburg",
              "stateName": "Pennsylvania",
              "countryName": "United States"
            },
            "miles": 80000,
            "upshow": false
          },
          {
            "airport": {
              "point": {
                "latitude": 40.48111111111111,
                "longitude": -107.21694444444445
              },
              "name": "Hayden Yampa Valley Steamboat Springs",
              "code": "HDN",
              "cityName": "Hayden",
              "stateName": "Colorado",
              "countryName": "United States"
            },
            "miles": 80000,
            "upshow": false
          },
          {
            "airport": {
              "point": {
                "latitude": 29.645,
                "longitude": -95.27861111111109
              },
              "name": "Houston Hobby",
              "code": "HOU",
              "cityName": "Houston",
              "stateName": "Texas",
              "countryName": "United States"
            },
            "miles": 80000,
            "upshow": false
          },
          {
            "airport": {
              "point": {
                "latitude": 34.64111111111111,
                "longitude": -86.77388888888889
              },
              "name": "Huntsville Intl",
              "code": "HSV",
              "cityName": "Huntsville",
              "stateName": "Alabama",
              "countryName": "United States"
            },
            "miles": 80000,
            "upshow": false
          },
          {
            "airport": {
              "point": {
                "latitude": 39.724166666666676,
                "longitude": -86.28305555555555
              },
              "name": "Indianapolis International",
              "code": "IND",
              "cityName": "Indianapolis",
              "stateName": "Indiana",
              "countryName": "United States"
            },
            "miles": 80000,
            "upshow": false
          },
          {
            "airport": {
              "point": {
                "latitude": 32.31083333333333,
                "longitude": -90.07555555555555
              },
              "name": "Jackson Intl",
              "code": "JAN",
              "cityName": "Jackson",
              "stateName": "Mississippi",
              "countryName": "United States"
            },
            "miles": 80000,
            "upshow": false
          },
          {
            "airport": {
              "point": {
                "latitude": 42.23472222222222,
                "longitude": -85.55194444444443
              },
              "name": "Kalamazoo Battle Creek Intl",
              "code": "AZO",
              "cityName": "Kalamazoo",
              "stateName": "Michigan",
              "countryName": "United States"
            },
            "miles": 80000,
            "upshow": false
          },
          {
            "airport": {
              "point": {
                "latitude": 39.299166666666665,
                "longitude": -94.71750000000002
              },
              "name": "Kansas City International",
              "code": "MCI",
              "cityName": "Kansas City",
              "stateName": "Missouri",
              "countryName": "United States"
            },
            "miles": 80000,
            "upshow": false
          },
          {
            "airport": {
              "point": {
                "latitude": 24.55611111111111,
                "longitude": -81.75972222222222
              },
              "name": "Key West International",
              "code": "EYW",
              "cityName": "Key West",
              "stateName": "Florida",
              "countryName": "United States"
            },
            "miles": 80000,
            "upshow": false
          },
          {
            "airport": {
              "point": {
                "latitude": 31.06666666666667,
                "longitude": -97.83333333333334
              },
              "name": "Killeen Fort Hood Regional Airport",
              "code": "GRK",
              "cityName": "Killeen",
              "stateName": "Texas",
              "countryName": "United States"
            },
            "miles": 80000,
            "upshow": false
          },
          {
            "airport": {
              "point": {
                "latitude": 35.8125,
                "longitude": -83.99277777777776
              },
              "name": "Knoxville Mc Ghee Tyson",
              "code": "TYS",
              "cityName": "Knoxville",
              "stateName": "Tennessee",
              "countryName": "United States"
            },
            "miles": 80000,
            "upshow": false
          },
          {
            "airport": {
              "point": {
                "latitude": 43.87916666666667,
                "longitude": -91.2561111111111
              },
              "name": "La Crosse Municipal",
              "code": "LSE",
              "cityName": "La Crosse",
              "stateName": "Wisconsin",
              "countryName": "United States"
            },
            "miles": 80000,
            "upshow": false
          },
          {
            "airport": {
              "point": {
                "latitude": 30.20388888888889,
                "longitude": -91.98777777777777
              },
              "name": "Lafayette Regional",
              "code": "LFT",
              "cityName": "Lafayette",
              "stateName": "Louisiana",
              "countryName": "United States"
            },
            "miles": 80000,
            "upshow": false
          },
          {
            "airport": {
              "point": {
                "latitude": 30.125555555555557,
                "longitude": -93.2227777777778
              },
              "name": "Lake Charles Municipal",
              "code": "LCH",
              "cityName": "Lake Charles",
              "stateName": "Louisiana",
              "countryName": "United States"
            },
            "miles": 80000,
            "upshow": false
          },
          {
            "airport": {
              "point": {
                "latitude": 27.544722222222223,
                "longitude": -99.46111111111111
              },
              "name": "Laredo International",
              "code": "LRD",
              "cityName": "Laredo",
              "stateName": "Texas",
              "countryName": "United States"
            },
            "miles": 80000,
            "upshow": false
          },
          {
            "airport": {
              "point": {
                "latitude": 34.56666666666667,
                "longitude": -98.41583333333334
              },
              "name": "Lawton Municipal",
              "code": "LAW",
              "cityName": "Lawton",
              "stateName": "Oklahoma",
              "countryName": "United States"
            },
            "miles": 80000,
            "upshow": false
          },
          {
            "airport": {
              "point": {
                "latitude": 38.03638888888889,
                "longitude": -84.60555555555557
              },
              "name": "Lexington Blue Grass",
              "code": "LEX",
              "cityName": "Lexington",
              "stateName": "Kentucky",
              "countryName": "United States"
            },
            "miles": 80000,
            "upshow": false
          },
          {
            "airport": {
              "point": {
                "latitude": 34.730000000000004,
                "longitude": -92.23277777777778
              },
              "name": "Little Rock National Airport",
              "code": "LIT",
              "cityName": "Little Rock",
              "stateName": "Arkansas",
              "countryName": "United States"
            },
            "miles": 80000,
            "upshow": false
          },
          {
            "airport": {
              "point": {
                "latitude": 38.17444444444444,
                "longitude": -85.7363888888889
              },
              "name": "Louisville Standiford Field",
              "code": "SDF",
              "cityName": "Louisville",
              "stateName": "Kentucky",
              "countryName": "United States"
            },
            "miles": 80000,
            "upshow": false
          },
          {
            "airport": {
              "point": {
                "latitude": 33.663333333333334,
                "longitude": -101.82222222222221
              },
              "name": "Lubbock Preston Smith International Airport",
              "code": "LBB",
              "cityName": "Lubbock",
              "stateName": "Texas",
              "countryName": "United States"
            },
            "miles": 80000,
            "upshow": false
          },
          {
            "airport": {
              "point": {
                "latitude": 43.139444444444436,
                "longitude": -89.33694444444443
              },
              "name": "Madison Dane County Regional",
              "code": "MSN",
              "cityName": "Madison",
              "stateName": "Wisconsin",
              "countryName": "United States"
            },
            "miles": 80000,
            "upshow": false
          },
          {
            "airport": {
              "point": {
                "latitude": 39.14083333333333,
                "longitude": -96.67055555555558
              },
              "name": "Manhattan Regional Airport",
              "code": "MHK",
              "cityName": "Manhattan",
              "stateName": "Kansas",
              "countryName": "United States"
            },
            "miles": 80000,
            "upshow": false
          },
          {
            "airport": {
              "point": {
                "latitude": 26.17527777777778,
                "longitude": -98.23805555555558
              },
              "name": "McAllen Miller International McAllen",
              "code": "MFE",
              "cityName": "McAllen/ Mission",
              "stateName": "Texas",
              "countryName": "United States"
            },
            "miles": 80000,
            "upshow": false
          },
          {
            "airport": {
              "point": {
                "latitude": 35.04972222222222,
                "longitude": -89.97861111111112
              },
              "name": "Memphis International",
              "code": "MEM",
              "cityName": "Memphis",
              "stateName": "Tennessee",
              "countryName": "United States"
            },
            "miles": 80000,
            "upshow": false
          },
          {
            "airport": {
              "point": {
                "latitude": 31.942499999999995,
                "longitude": -102.20166666666667
              },
              "name": "Midland Odessa Regional",
              "code": "MAF",
              "cityName": "Midland",
              "stateName": "Texas",
              "countryName": "United States"
            },
            "miles": 80000,
            "upshow": false
          },
          {
            "airport": {
              "point": {
                "latitude": 42.94666666666666,
                "longitude": -87.89666666666668
              },
              "name": "Milwaukee General Mitchell",
              "code": "MKE",
              "cityName": "Milwaukee",
              "stateName": "Wisconsin",
              "countryName": "United States"
            },
            "miles": 80000,
            "upshow": false
          },
          {
            "airport": {
              "point": {
                "latitude": 44.88416666666667,
                "longitude": -93.21472222222222
              },
              "name": "Minneapolis St Paul International",
              "code": "MSP",
              "cityName": "Minneapolis/ St Paul",
              "stateName": "Minnesota",
              "countryName": "United States"
            },
            "miles": 80000,
            "upshow": false
          },
          {
            "airport": {
              "point": {
                "latitude": 30.689444444444444,
                "longitude": -88.24194444444444
              },
              "name": "Mobile Municipal Arpt",
              "code": "MOB",
              "cityName": "Mobile",
              "stateName": "Alabama",
              "countryName": "United States"
            },
            "miles": 80000,
            "upshow": false
          },
          {
            "airport": {
              "point": {
                "latitude": 41.44861111111111,
                "longitude": -90.50777777777778
              },
              "name": "Moline Quad City",
              "code": "MLI",
              "cityName": "Moline",
              "stateName": "Illinois",
              "countryName": "United States"
            },
            "miles": 80000,
            "upshow": false
          },
          {
            "airport": {
              "point": {
                "latitude": 32.510555555555555,
                "longitude": -92.03750000000001
              },
              "name": "Monroe Municipal",
              "code": "MLU",
              "cityName": "Monroe",
              "stateName": "Louisiana",
              "countryName": "United States"
            },
            "miles": 80000,
            "upshow": false
          },
          {
            "airport": {
              "point": {
                "latitude": 32.30027777777777,
                "longitude": -86.3938888888889
              },
              "name": "Montgomery Dannelly Fld",
              "code": "MGM",
              "cityName": "Montgomery",
              "stateName": "Alabama",
              "countryName": "United States"
            },
            "miles": 80000,
            "upshow": false
          },
          {
            "airport": {
              "point": {
                "latitude": 36.126666666666665,
                "longitude": -86.68111111111111
              },
              "name": "Nashville International",
              "code": "BNA",
              "cityName": "Nashville",
              "stateName": "Tennessee",
              "countryName": "United States"
            },
            "miles": 80000,
            "upshow": false
          },
          {
            "airport": {
              "point": {
                "latitude": 29.992777777777775,
                "longitude": -90.25611111111111
              },
              "name": "New Orleans Louis Armstrong Intl",
              "code": "MSY",
              "cityName": "New Orleans",
              "stateName": "Louisiana",
              "countryName": "United States"
            },
            "miles": 80000,
            "upshow": false
          },
          {
            "airport": {
              "point": {
                "latitude": 40.69305555555555,
                "longitude": -74.16861111111112
              },
              "name": "Newark Liberty Intl",
              "code": "EWR",
              "cityName": "Newark",
              "stateName": "New Jersey",
              "countryName": "United States"
            },
            "miles": 80000,
            "upshow": false
          },
          {
            "airport": {
              "point": {
                "latitude": 36.894444444444446,
                "longitude": -76.20138888888889
              },
              "name": "Norfolk International",
              "code": "ORF",
              "cityName": "Norfolk",
              "stateName": "Virginia",
              "countryName": "United States"
            },
            "miles": 80000,
            "upshow": false
          },
          {
            "airport": {
              "point": {
                "latitude": 35.39277777777778,
                "longitude": -97.60027777777778
              },
              "name": "Oklahoma City Will Rogers World",
              "code": "OKC",
              "cityName": "Oklahoma City",
              "stateName": "Oklahoma",
              "countryName": "United States"
            },
            "miles": 80000,
            "upshow": false
          },
          {
            "airport": {
              "point": {
                "latitude": 40.66444444444445,
                "longitude": -89.6913888888889
              },
              "name": "Greater Peoria",
              "code": "PIA",
              "cityName": "Peoria",
              "stateName": "Illinois",
              "countryName": "United States"
            },
            "miles": 80000,
            "upshow": false
          },
          {
            "airport": {
              "point": {
                "latitude": 39.86999999999999,
                "longitude": -75.24527777777777
              },
              "name": "Philadelphia International",
              "code": "PHL",
              "cityName": "Philadelphia",
              "stateName": "Pennsylvania",
              "countryName": "United States"
            },
            "miles": 80000,
            "upshow": false
          },
          {
            "airport": {
              "point": {
                "latitude": 40.4913888888889,
                "longitude": -80.23222222222222
              },
              "name": "Pittsburgh Intl Apt",
              "code": "PIT",
              "cityName": "Pittsburgh",
              "stateName": "Pennsylvania",
              "countryName": "United States"
            },
            "miles": 80000,
            "upshow": false
          },
          {
            "airport": {
              "point": {
                "latitude": 43.64583333333333,
                "longitude": -70.30916666666666
              },
              "name": "Portland Intl Jetport",
              "code": "PWM",
              "cityName": "Portland",
              "stateName": "Maine",
              "countryName": "United States"
            },
            "miles": 80000,
            "upshow": false
          },
          {
            "airport": {
              "point": {
                "latitude": 35.87722222222222,
                "longitude": -78.7875
              },
              "name": "Raleigh Durham",
              "code": "RDU",
              "cityName": "Raleigh/ Durham",
              "stateName": "North Carolina",
              "countryName": "United States"
            },
            "miles": 80000,
            "upshow": false
          },
          {
            "airport": {
              "point": {
                "latitude": 44.045277777777784,
                "longitude": -103.05666666666666
              },
              "name": "Rapid City Regional",
              "code": "RAP",
              "cityName": "Rapid City",
              "stateName": "South Dakota",
              "countryName": "United States"
            },
            "miles": 80000,
            "upshow": false
          },
          {
            "airport": {
              "point": {
                "latitude": 39.49888888888889,
                "longitude": -119.76694444444446
              },
              "name": "Reno Tahoe Intl",
              "code": "RNO",
              "cityName": "Reno",
              "stateName": "Nevada",
              "countryName": "United States"
            },
            "miles": 80000,
            "upshow": false
          },
          {
            "airport": {
              "point": {
                "latitude": 37.505,
                "longitude": -77.31972222222223
              },
              "name": "Richmond Intl Byrd Field",
              "code": "RIC",
              "cityName": "Richmond",
              "stateName": "Virginia",
              "countryName": "United States"
            },
            "miles": 80000,
            "upshow": false
          },
          {
            "airport": {
              "point": {
                "latitude": 43.11861111111111,
                "longitude": -77.67249999999999
              },
              "name": "Rochester Monroe County",
              "code": "ROC",
              "cityName": "Rochester",
              "stateName": "New York",
              "countryName": "United States"
            },
            "miles": 80000,
            "upshow": false
          },
          {
            "airport": {
              "point": {
                "latitude": 43.90861111111111,
                "longitude": -92.4977777777778
              },
              "name": "Rochester International Airport",
              "code": "RST",
              "cityName": "Rochester",
              "stateName": "Minnesota",
              "countryName": "United States"
            },
            "miles": 80000,
            "upshow": false
          },
          {
            "airport": {
              "point": {
                "latitude": 33.30138888888889,
                "longitude": -104.53
              },
              "name": "Roswell International Air Center",
              "code": "ROW",
              "cityName": "Roswell",
              "stateName": "New Mexico",
              "countryName": "United States"
            },
            "miles": 80000,
            "upshow": false
          },
          {
            "airport": {
              "point": {
                "latitude": 40.78666666666667,
                "longitude": -111.96777777777778
              },
              "name": "Salt Lake City International",
              "code": "SLC",
              "cityName": "Salt Lake City",
              "stateName": "Utah",
              "countryName": "United States"
            },
            "miles": 80000,
            "upshow": false
          },
          {
            "airport": {
              "point": {
                "latitude": 31.358055555555563,
                "longitude": -100.49555555555555
              },
              "name": "San Angelo Mathis Fld",
              "code": "SJT",
              "cityName": "San Angelo",
              "stateName": "Texas",
              "countryName": "United States"
            },
            "miles": 80000,
            "upshow": false
          },